{"Fauver Apartments": {"lat": 41.553421, "lon": -72.6593956, "name": "Fauver Apartments", "address": "19 Foss Hill Drive"}, "Foss Hill 5": {"lat": 41.5544121, "lon": -72.6594774, "name": "Foss Hill 5", "address": "57 Foss Hill Drive"}, "Wasch Center for Retired Faculty": {"lat": 41.5530585, "lon": -72.6553757, "name": "Wasch Center for Retired Faculty", "address": "51 Lawn Avenue"}, "Rehearsal Hall": {"lat": 41.5588211, "lon": -72.6575708, "name": "Rehearsal Hall", "address": "283 Washington Terrace"}, "North College": {"lat": 41.5565925, "lon": -72.6549376, "name": "North College", "address": "237 High Street"}, "Romance Languages and Literatures": {"lat": 41.5587704, "lon": -72.65507790000001, "name": "Romance Languages and Literatures", "address": "300 High Street"}, "Human Resources": {"lat": 41.5575992, "lon": -72.6530283, "name": "Human Resources", "address": "212 College Street"}, "WesWings at 156 High": {"lat": 41.5537368, "lon": -72.6536426, "name": "WesWings at 156 High", "address": "156 High Street"}, "Art Studio South": {"lat": 41.5588211, "lon": -72.6575708, "name": "Art Studio South", "address": "283  Washington Terrace"}, "CFA Film Studies": {"lat": 41.5591055, "lon": -72.6585121, "name": "CFA Film Studies", "address": "301  Washington Terrace"}, "Memorial Chapel": {"lat": 41.5561805, "lon": -72.65479239999999, "name": "Memorial Chapel", "address": "221 High Street"}, "Art Workshops": {"lat": 41.5588211, "lon": -72.6575708, "name": "Art Workshops", "address": "283  Washington Terrace"}, "Public Affairs Center (Harriman Hall)": {"lat": 41.5539204, "lon": -72.6563488, "name": "Public Affairs Center (Harriman Hall)", "address": "238 Church Street"}, "Center for the Americas ": {"lat": 41.5569306, "lon": -72.6553579, "name": "Center for the Americas ", "address": "255 High Street"}, "Russell House": {"lat": 41.5602817, "lon": -72.655318, "name": "Russell House", "address": "350 High Street"}, "Senior Townhouses": {"lat": 41.5526864, "lon": -72.6594405, "name": "Senior Townhouses", "address": "20 A/B/C Fountain Ave"}, "Investment Office": {"lat": 41.5566389, "lon": -72.6583587, "name": "Investment Office", "address": "74 Wyllys Avenue"}, "CFA Music Studios": {"lat": 41.5588211, "lon": -72.6575708, "name": "CFA Music Studios", "address": "283  Washington Terrace"}, "Smith Field": {"lat": 41.5476852, "lon": -72.6622361, "name": "Smith Field", "address": "Smith Field"}, "Cady Building &#8211; Facilities Office": {"lat": 41.5359067, "lon": -72.66642329999999, "name": "Cady Building &#8211; Facilities Office", "address": "170 Long Lane"}, "CFA Cinema": {"lat": 41.5588211, "lon": -72.6575708, "name": "CFA Cinema", "address": "283  Washington Terrace"}, "Softball Field": {"lat": 41.5623209, "lon": -72.6506488, "name": "Softball Field", "address": "Softball Field"}, "Fisk Hall": {"lat": 41.5575661, "lon": -72.6551154, "name": "Fisk Hall", "address": "262 High Street"}, "Weshop/ Foss Hill 1-Westco": {"lat": 41.5544121, "lon": -72.6594774, "name": "Weshop/ Foss Hill 1-Westco", "address": "18 Foss Hill Drive"}, "Fauver Frosh": {"lat": 41.5544121, "lon": -72.6594774, "name": "Fauver Frosh", "address": "35 Foss Hill Drive"}, "Exley Science Center": {"lat": 41.5537111, "lon": -72.6572747, "name": "Exley Science Center", "address": "265 Church Street"}, "Art Studio North": {"lat": 41.5588211, "lon": -72.6575708, "name": "Art Studio North", "address": "283  Washington Terrace"}, "Graduate Liberal Studies Program": {"lat": 41.5541677, "lon": -72.65425789999999, "name": "Graduate Liberal Studies Program", "address": "184 High Street"}, "Fayerweather/Beckam Hall": {"lat": 41.556641, "lon": -72.65737159999999, "name": "Fayerweather/Beckam Hall", "address": "45 Wyllys Avenue"}, "Davison Art Center": {"lat": 41.5582275, "lon": -72.65618500000001, "name": "Davison Art Center", "address": "301 High Street"}, "Davison Health Center": {"lat": 41.5592416, "lon": -72.65553779999999, "name": "Davison Health Center", "address": "327 High Street"}, "The Bayit": {"lat": 41.5541527, "lon": -72.65424399999999, "name": "The Bayit", "address": "157 Church Street"}, "CFA Theater": {"lat": 41.5602322, "lon": -72.6557528, "name": "CFA Theater", "address": "271  Washington Terrace"}, "Zilkha Gallery": {"lat": 41.5588211, "lon": -72.6575708, "name": "Zilkha Gallery", "address": "283  Washington Terrace"}, "Mansfield Freeman Center for East Asian Studies": {"lat": 41.5587645, "lon": -72.6598784, "name": "Mansfield Freeman Center for East Asian Studies", "address": "343  Washington Terrace"}, "Judd Hall": {"lat": 41.5558138, "lon": -72.6547131, "name": "Judd Hall", "address": "207 High Street"}, "Clark Hall": {"lat": 41.5539083, "lon": -72.65646, "name": "Clark Hall", "address": "268 Church Street"}, "Usdan University Center": {"lat": 41.5568499, "lon": -72.6575166, "name": "Usdan University Center", "address": "43 Wyllys Avenue"}, "Center for Humanities": {"lat": 41.5601862, "lon": -72.6536842, "name": "Center for Humanities", "address": "95 Pearl Street"}, "Butterfield Colleges:": {"lat": 41.5623209, "lon": -72.6506488, "name": "Butterfield Colleges:", "address": "Butterfield Colleges:"}, "Hall - Atwater": {"lat": 41.5531671, "lon": -72.6560464, "name": "Hall - Atwater", "address": "Hall - Atwater"}, "Shanklin Laboratory": {"lat": 41.553522, "lon": -72.65747999999999, "name": "Shanklin Laboratory", "address": "237 Church Street"}, "Freeman Athletic Center": {"lat": 41.5516384, "lon": -72.6608504, "name": "Freeman Athletic Center", "address": "161 Cross Street"}, "Upward Bound": {"lat": 41.5534827, "lon": -72.6542407, "name": "Upward Bound", "address": "41 Lawn Avenue"}, "South College": {"lat": 41.5563894, "lon": -72.65484409999999, "name": "South College", "address": "229 High Street"}, "Davison Art Library": {"lat": 41.5582275, "lon": -72.65618500000001, "name": "Davison Art Library", "address": "301 High Street"}, "Crowell Concert Hall": {"lat": 41.5588211, "lon": -72.6575708, "name": "Crowell Concert Hall", "address": "283  Washington Terrace"}, "Alpha Delta Phi": {"lat": 41.55393919999999, "lon": -72.65592, "name": "Alpha Delta Phi", "address": "185 Church Street"}, "Broad Street Books": {"lat": 41.55783599999999, "lon": -72.6505798, "name": "Broad Street Books", "address": "45 Broad Street"}, "World Music Hall": {"lat": 41.5588211, "lon": -72.6575708, "name": "World Music Hall", "address": "283  Washington Terrace"}, "Downey House": {"lat": 41.5579117, "lon": -72.6552007, "name": "Downey House", "address": "294 High Street"}, "Center for African American Studies (Malcolm X House)": {"lat": 41.5595475, "lon": -72.6556105, "name": "Center for African American Studies (Malcolm X House)", "address": "343 High Street"}, "Dance Studio": {"lat": 41.5521321, "lon": -72.65841309999999, "name": "Dance Studio", "address": "247 Pine Street"}, "University Relations/The Wesleyan Fund": {"lat": 41.5567052, "lon": -72.658863, "name": "University Relations/The Wesleyan Fund", "address": "164 Mount Vernon Street"}, "Patricelli &#8217;92 Theater": {"lat": 41.5559711, "lon": -72.65474689999999, "name": "Patricelli &#8217;92 Theater", "address": "213 High Street"}, "English Department": {"lat": 41.5585014, "lon": -72.6546474, "name": "English Department", "address": "285 Court Street"}, "Alumni Office": {"lat": 41.5592963, "lon": -72.6555133, "name": "Alumni Office", "address": "330 High Street"}, "Olin Library": {"lat": 41.5539147, "lon": -72.65640069999999, "name": "Olin Library", "address": "252 Church Street"}, "Admissions Office (Steward M. Reid House)": {"lat": 41.5568763, "lon": -72.6580333, "name": "Admissions Office (Steward M. Reid House)", "address": "70 Wyllys Avenue"}, "President&#8217;s House": {"lat": 41.557714, "lon": -72.6551904, "name": "President&#8217;s House", "address": "269 High Street"}, "Center for Community Partnerships/Chaplains Offices": {"lat": 41.55398659999999, "lon": -72.6542036, "name": "Center for Community Partnerships/Chaplains Offices", "address": "167/169 High Street"}, "Public Safety": {"lat": 41.5553306, "lon": -72.6544342, "name": "Public Safety", "address": "208 High Street"}, "John Woods Memorial Tennis Courts": {"lat": 41.5558734, "lon": -72.6609764, "name": "John Woods Memorial Tennis Courts", "address": "Vine Street"}}